port_name,latitude,longitude,country
Shanghai,31.2304,121.4737,China
Singapore,1.2904,103.8520,Singapore
Rotterdam,51.9225,4.4792,Netherlands
Los Angeles,33.7288,-118.2620,USA
Dubai,25.2697,55.2960,UAE
Hamburg,53.5511,9.9937,Germany
New York,40.7128,-74.0060,USA
Hong Kong,22.3193,114.1694,China
Busan,35.1796,129.0756,South Korea
Tokyo,35.6762,139.6503,Japan 